,Unnamed: 0,Time,header.seq,header.stamp.secs,header.stamp.nsecs,header.frame_id,rpm
0,0,1617791999.0957243,1116,1617791999,95527767,,0.0
1,1,1617791999.1157055,1117,1617791999,115525756,,0.0
2,2,1617791999.1357365,1118,1617791999,135545530,,0.0
3,3,1617791999.1557605,1119,1617791999,155560259,,0.0
4,4,1617791999.1757722,1120,1617791999,175564911,,0.0
5,5,1617791999.1957607,1121,1617791999,195560869,,0.0
6,6,1617791999.2157154,1122,1617791999,215548625,,0.0
7,7,1617791999.2357352,1123,1617791999,235548793,,0.0
8,8,1617791999.2557476,1124,1617791999,255553530,,0.0
9,9,1617791999.2757163,1125,1617791999,275527557,,0.0
10,10,1617791999.2957313,1126,1617791999,295548542,,0.0
11,11,1617791999.3156884,1127,1617791999,315526998,,0.0
12,12,1617791999.3357346,1128,1617791999,335550689,,0.0
13,13,1617791999.3557186,1129,1617791999,355559627,,0.0
14,14,1617791999.375702,1130,1617791999,375550659,,0.0
15,15,1617791999.3956974,1131,1617791999,395560189,,0.0
16,16,1617791999.415727,1132,1617791999,415562215,,0.0
17,17,1617791999.4357128,1133,1617791999,435548207,,0.0
18,18,1617791999.455722,1134,1617791999,455560291,,0.0
19,19,1617791999.4757564,1135,1617791999,475565175,,0.0
20,20,1617791999.4957552,1136,1617791999,495562450,,0.0
21,21,1617791999.5157135,1137,1617791999,515529591,,0.0
22,22,1617791999.5356936,1138,1617791999,535549035,,0.0
23,23,1617791999.5556679,1139,1617791999,555549617,,0.0
24,24,1617791999.5757358,1140,1617791999,575553799,,0.0
25,25,1617791999.5957432,1141,1617791999,595549948,,0.0
26,26,1617791999.6157484,1142,1617791999,615559924,,0.0
27,27,1617791999.6357188,1143,1617791999,635549166,,0.0
28,28,1617791999.6557205,1144,1617791999,655529720,,0.0
29,29,1617791999.6756914,1145,1617791999,675530540,,0.0
30,30,1617791999.6957405,1146,1617791999,695548558,,0.0
31,31,1617791999.7157445,1147,1617791999,715548948,,0.0
32,32,1617791999.7357488,1148,1617791999,735551074,,0.0
33,33,1617791999.7557485,1149,1617791999,755559919,,0.0
34,34,1617791999.7757149,1150,1617791999,775549516,,0.0
35,35,1617791999.7957435,1151,1617791999,795549816,,0.0
36,36,1617791999.8157005,1152,1617791999,815536581,,0.0
37,37,1617791999.8357086,1153,1617791999,835548526,,0.0
38,38,1617791999.8557186,1154,1617791999,855548746,,0.0
39,39,1617791999.8757071,1155,1617791999,875551358,,0.0
40,40,1617791999.895712,1156,1617791999,895554543,,0.0
41,41,1617791999.9157288,1157,1617791999,915559962,,0.0
42,42,1617791999.9357162,1158,1617791999,935550394,,0.0
43,43,1617791999.95573,1159,1617791999,955559965,,0.0
44,44,1617791999.9757442,1160,1617791999,975551326,,0.0
45,45,1617791999.9957473,1161,1617791999,995548865,,0.0
46,46,1617792000.0157216,1162,1617792000,15560497,,0.0
47,47,1617792000.0357118,1163,1617792000,35548726,,0.0
48,48,1617792000.055763,1164,1617792000,55565126,,0.0
49,49,1617792000.0757322,1165,1617792000,75574620,,0.0
50,50,1617792000.0957413,1166,1617792000,95554078,,0.0
51,51,1617792000.1157484,1167,1617792000,115560202,,0.0
52,52,1617792000.135713,1168,1617792000,135553074,,0.0
53,53,1617792000.155719,1169,1617792000,155528985,,0.0
54,54,1617792000.1757224,1170,1617792000,175526556,,0.0
55,55,1617792000.1957474,1171,1617792000,195547983,,0.0
56,56,1617792000.2157574,1172,1617792000,215563949,,0.0
57,57,1617792000.2357528,1173,1617792000,235560067,,0.0
58,58,1617792000.255753,1174,1617792000,255559665,,0.0
59,59,1617792000.2757409,1175,1617792000,275517224,,0.0
60,60,1617792000.2957532,1176,1617792000,295551221,,0.0
61,61,1617792000.3157544,1177,1617792000,315560344,,0.0
62,62,1617792000.3357635,1178,1617792000,335559541,,0.0
63,63,1617792000.3557322,1179,1617792000,355559769,,0.0
64,64,1617792000.3757505,1180,1617792000,375551504,,0.0
65,65,1617792000.3957212,1181,1617792000,395548193,,0.0
66,66,1617792000.4157414,1182,1617792000,415549173,,0.0
67,67,1617792000.435716,1183,1617792000,435549069,,0.0
68,68,1617792000.4557,1184,1617792000,455527448,,0.0
69,69,1617792000.4756913,1185,1617792000,475528038,,0.0
70,70,1617792000.495693,1186,1617792000,495528148,,0.0
71,71,1617792000.5156648,1187,1617792000,515527475,,0.0
72,72,1617792000.5357757,1188,1617792000,535575305,,0.0
73,73,1617792000.5557752,1189,1617792000,555580841,,0.0
74,74,1617792000.5757167,1190,1617792000,575548707,,0.0
75,75,1617792000.5957606,1191,1617792000,595556402,,0.0
76,76,1617792000.6157112,1192,1617792000,615550549,,0.0
77,77,1617792000.6357148,1193,1617792000,635549940,,0.0
78,78,1617792000.6557393,1194,1617792000,655549111,,0.0
79,79,1617792000.6757429,1195,1617792000,675547890,,0.0
80,80,1617792000.6957152,1196,1617792000,695550217,,0.0
81,81,1617792000.7157195,1197,1617792000,715548894,,0.0
82,82,1617792000.7357392,1198,1617792000,735547847,,0.0
83,83,1617792000.7557158,1199,1617792000,755549422,,0.0
84,84,1617792000.7756994,1200,1617792000,775551321,,0.0
85,85,1617792000.7957425,1201,1617792000,795549332,,0.0
86,86,1617792000.8157115,1202,1617792000,815549394,,0.0
87,87,1617792000.8356652,1203,1617792000,835526908,,0.0
88,88,1617792000.8557553,1204,1617792000,855554577,,0.0
89,89,1617792000.8757484,1205,1617792000,875548680,,0.0
90,90,1617792000.895708,1206,1617792000,895548572,,0.0
91,91,1617792000.9157467,1207,1617792000,915549008,,0.0
92,92,1617792000.9357462,1208,1617792000,935549798,,0.0
93,93,1617792000.9557555,1209,1617792000,955552937,,0.0
94,94,1617792000.9757595,1210,1617792000,975553564,,0.0
95,95,1617792000.9957428,1211,1617792000,995548698,,0.0
96,96,1617792001.0156827,1212,1617792001,15526890,,0.0
97,97,1617792001.0357456,1213,1617792001,35551038,,0.0
98,98,1617792001.0557375,1214,1617792001,55548648,,0.0
99,99,1617792001.0756538,1215,1617792001,75527374,,0.0
100,100,1617792001.0957255,1216,1617792001,95549968,,0.0
101,101,1617792001.1157458,1217,1617792001,115551005,,0.0
102,102,1617792001.1357448,1218,1617792001,135548589,,0.0
103,103,1617792001.1557415,1219,1617792001,155549021,,0.0
104,104,1617792001.1757169,1220,1617792001,175526091,,0.0
105,105,1617792001.195672,1221,1617792001,195528940,,0.0
106,106,1617792001.2156758,1222,1617792001,215532544,,0.0
107,107,1617792001.2356462,1223,1617792001,235528223,,0.0
108,108,1617792001.2557108,1224,1617792001,255562841,,0.0
109,109,1617792001.2757454,1225,1617792001,275563403,,0.0
110,110,1617792001.2957628,1226,1617792001,295561982,,0.0
111,111,1617792001.3156984,1227,1617792001,315562450,,0.0
112,112,1617792001.335734,1228,1617792001,335552963,,0.0
113,113,1617792001.3557105,1229,1617792001,355562991,,0.0
114,114,1617792001.3757238,1230,1617792001,375562198,,0.0
115,115,1617792001.3957288,1231,1617792001,395529501,,0.0
116,116,1617792001.4157536,1232,1617792001,415556900,,0.0
117,117,1617792001.4356632,1233,1617792001,435551051,,0.0
118,118,1617792001.455751,1234,1617792001,455551134,,0.0
119,119,1617792001.4757545,1235,1617792001,475552381,,0.0
120,120,1617792001.4957426,1236,1617792001,495551093,,0.0
121,121,1617792001.5157213,1237,1617792001,515530095,,0.0
122,122,1617792001.535745,1238,1617792001,535549036,,0.0
123,123,1617792001.5557475,1239,1617792001,555551223,,0.0
124,124,1617792001.57576,1240,1617792001,575550955,,0.0
125,125,1617792001.5957565,1241,1617792001,595552286,,0.0
126,126,1617792001.61572,1242,1617792001,615551159,,0.0
127,127,1617792001.635701,1243,1617792001,635526794,,0.0
128,128,1617792001.6557558,1244,1617792001,655562651,,0.0
129,129,1617792001.6757305,1245,1617792001,675526855,,0.0
130,130,1617792001.6957138,1246,1617792001,695549109,,0.0
131,131,1617792001.715719,1247,1617792001,715560229,,0.0
132,132,1617792001.7357454,1248,1617792001,735549553,,0.0
133,133,1617792001.7556856,1249,1617792001,755526872,,0.0
134,134,1617792001.7757342,1250,1617792001,775526967,,0.0
135,135,1617792001.7957242,1251,1617792001,795562000,,0.0
136,136,1617792001.815758,1252,1617792001,815565696,,0.0
137,137,1617792001.8357544,1253,1617792001,835560204,,0.0
138,138,1617792001.855735,1254,1617792001,855560150,,0.0
139,139,1617792001.8757384,1255,1617792001,875562138,,0.0
140,140,1617792001.8957384,1256,1617792001,895566550,,0.0
141,141,1617792001.915724,1257,1617792001,915559588,,0.0
142,142,1617792001.9357526,1258,1617792001,935560156,,0.0
143,143,1617792001.9557474,1259,1617792001,955559803,,0.0
144,144,1617792001.975726,1260,1617792001,975565428,,0.0
145,145,1617792001.9957213,1261,1617792001,995552945,,0.0
146,146,1617792002.015732,1262,1617792002,15527007,,0.0
147,147,1617792002.0357563,1263,1617792002,35560498,,0.0
148,148,1617792002.0557244,1264,1617792002,55562693,,0.0
149,149,1617792002.0757446,1265,1617792002,75552202,,0.0
150,150,1617792002.0957208,1266,1617792002,95528168,,0.0
151,151,1617792002.115718,1267,1617792002,115528070,,0.0
152,152,1617792002.1357453,1268,1617792002,135549432,,0.0
153,153,1617792002.1557512,1269,1617792002,155562964,,0.0
154,154,1617792002.175749,1270,1617792002,175555287,,0.0
155,155,1617792002.1957743,1271,1617792002,195561367,,0.0
156,156,1617792002.2157488,1272,1617792002,215560394,,0.0
157,157,1617792002.23575,1273,1617792002,235550856,,0.0
158,158,1617792002.2557602,1274,1617792002,255565405,,0.0
159,159,1617792002.2757292,1275,1617792002,275563392,,0.0
160,160,1617792002.2957134,1276,1617792002,295549072,,0.0
161,161,1617792002.3157144,1277,1617792002,315550686,,0.0
162,162,1617792002.335737,1278,1617792002,335548152,,0.0
163,163,1617792002.3557231,1279,1617792002,355527907,,0.0
164,164,1617792002.3756788,1280,1617792002,375530347,,0.0
165,165,1617792002.3957214,1281,1617792002,395526822,,0.0
166,166,1617792002.4156911,1282,1617792002,415528600,,0.0
167,167,1617792002.4356976,1283,1617792002,435528863,,0.0
168,168,1617792002.4557116,1284,1617792002,455517401,,0.0
169,169,1617792002.4756918,1285,1617792002,475528936,,0.0
170,170,1617792002.4956982,1286,1617792002,495526853,,0.0
171,171,1617792002.5156958,1287,1617792002,515529006,,0.0
172,172,1617792002.535665,1288,1617792002,535528657,,0.0
173,173,1617792002.5557432,1289,1617792002,555527092,,0.0
174,174,1617792002.5757015,1290,1617792002,575528941,,0.0
175,175,1617792002.5957253,1291,1617792002,595527752,,0.0
176,176,1617792002.6156962,1292,1617792002,615526835,,0.0
177,177,1617792002.6357484,1293,1617792002,635552238,,0.0
178,178,1617792002.6557214,1294,1617792002,655553574,,0.0
179,179,1617792002.6757526,1295,1617792002,675552273,,0.0
180,180,1617792002.6957376,1296,1617792002,695550327,,0.0
181,181,1617792002.7157595,1297,1617792002,715553357,,0.0
182,182,1617792002.7357454,1298,1617792002,735551435,,0.0
183,183,1617792002.7556984,1299,1617792002,755527482,,0.0
184,184,1617792002.7757232,1300,1617792002,775530397,,0.0
185,185,1617792002.7957401,1301,1617792002,795549525,,0.0
186,186,1617792002.8157518,1302,1617792002,815560308,,0.0
187,187,1617792002.8357253,1303,1617792002,835530744,,0.0
188,188,1617792002.8557394,1304,1617792002,855560336,,0.0
189,189,1617792002.875749,1305,1617792002,875548780,,0.0
190,190,1617792002.8957558,1306,1617792002,895563778,,0.0
191,191,1617792002.915739,1307,1617792002,915548891,,0.0
192,192,1617792002.9357178,1308,1617792002,935528600,,0.0
193,193,1617792002.9557507,1309,1617792002,955560009,,0.0
194,194,1617792002.9757574,1310,1617792002,975562607,,0.0
195,195,1617792002.9957495,1311,1617792002,995560128,,0.0
196,196,1617792003.015748,1312,1617792003,15559369,,0.0
197,197,1617792003.0357502,1313,1617792003,35560027,,0.0
198,198,1617792003.0557554,1314,1617792003,55562385,,0.0
199,199,1617792003.0757535,1315,1617792003,75560254,,0.0
200,200,1617792003.095715,1316,1617792003,95527240,,0.0
201,201,1617792003.1157484,1317,1617792003,115559479,,0.0
202,202,1617792003.1357539,1318,1617792003,135562568,,0.0
203,203,1617792003.1557386,1319,1617792003,155548652,,0.0
204,204,1617792003.1757386,1320,1617792003,175548833,,0.0
205,205,1617792003.1957364,1321,1617792003,195562388,,0.0
206,206,1617792003.21576,1322,1617792003,215562029,,0.0
207,207,1617792003.235706,1323,1617792003,235547370,,0.0
208,208,1617792003.2556894,1324,1617792003,255527266,,0.0
209,209,1617792003.2756968,1325,1617792003,275560391,,0.0
210,210,1617792003.2956893,1326,1617792003,295526954,,0.0
211,211,1617792003.3157225,1327,1617792003,315528168,,0.0
212,212,1617792003.3357155,1328,1617792003,335526514,,0.0
213,213,1617792003.3556929,1329,1617792003,355525719,,0.0
214,214,1617792003.3757215,1330,1617792003,375526372,,0.0
215,215,1617792003.3956988,1331,1617792003,395561484,,0.0
216,216,1617792003.4157212,1332,1617792003,415561226,,0.0
217,217,1617792003.4356925,1333,1617792003,435560163,,0.0
218,218,1617792003.4557302,1334,1617792003,455565272,,0.0
219,219,1617792003.4757035,1335,1617792003,475560020,,0.0
220,220,1617792003.4957206,1336,1617792003,495560912,,0.0
221,221,1617792003.5157206,1337,1617792003,515560359,,0.0
222,222,1617792003.5356894,1338,1617792003,535526727,,0.0
223,223,1617792003.5557206,1339,1617792003,555526371,,0.0
224,224,1617792003.5757327,1340,1617792003,575562994,,0.0
225,225,1617792003.5956507,1341,1617792003,595528122,,0.0
226,226,1617792003.615721,1342,1617792003,615553203,,0.0
227,227,1617792003.6357038,1343,1617792003,635548762,,0.0
228,228,1617792003.6557071,1344,1617792003,655549453,,0.0
229,229,1617792003.6757126,1345,1617792003,675548843,,0.0
230,230,1617792003.6956866,1346,1617792003,695552623,,0.0
231,231,1617792003.7157028,1347,1617792003,715549647,,0.0
232,232,1617792003.7357016,1348,1617792003,735548417,,0.0
233,233,1617792003.7556865,1349,1617792003,755528389,,0.0
234,234,1617792003.7756994,1350,1617792003,775528111,,0.0
235,235,1617792003.7956793,1351,1617792003,795547875,,0.0
236,236,1617792003.81571,1352,1617792003,815549412,,0.0
237,237,1617792003.8356767,1353,1617792003,835548395,,0.0
238,238,1617792003.8557405,1354,1617792003,855529432,,0.0
239,239,1617792003.8757575,1355,1617792003,875550848,,0.0
240,240,1617792003.8957348,1356,1617792003,895547542,,0.0
241,241,1617792003.91571,1357,1617792003,915549108,,0.0
242,242,1617792003.9357555,1358,1617792003,935563271,,0.0
243,243,1617792003.9557412,1359,1617792003,955549267,,0.0
244,244,1617792003.9757445,1360,1617792003,975576769,,0.0
245,245,1617792003.9956837,1361,1617792003,995526584,,0.0
246,246,1617792004.0157435,1362,1617792004,15551091,,0.0
247,247,1617792004.0357182,1363,1617792004,35528514,,0.0
248,248,1617792004.0557222,1364,1617792004,55561931,,0.0
249,249,1617792004.07574,1365,1617792004,75551075,,0.0
250,250,1617792004.0956554,1366,1617792004,95518937,,0.0
251,251,1617792004.1157153,1367,1617792004,115560919,,0.0
252,252,1617792004.135712,1368,1617792004,135550567,,0.0
253,253,1617792004.1557152,1369,1617792004,155561474,,0.0
254,254,1617792004.1757152,1370,1617792004,175552743,,0.0
255,255,1617792004.1956954,1371,1617792004,195549645,,0.0
256,256,1617792004.2157474,1372,1617792004,215560239,,0.0
257,257,1617792004.235703,1373,1617792004,235548596,,0.0
258,258,1617792004.2557466,1374,1617792004,255560711,,0.0
259,259,1617792004.2757387,1375,1617792004,275554453,,0.0
260,260,1617792004.2956865,1376,1617792004,295526815,,0.0
261,261,1617792004.3157434,1377,1617792004,315560293,,0.0
262,262,1617792004.3357382,1378,1617792004,335549475,,0.0
263,263,1617792004.3556852,1379,1617792004,355558388,,0.0
264,264,1617792004.375692,1380,1617792004,375527059,,0.0
265,265,1617792004.3957484,1381,1617792004,395562253,,0.0
266,266,1617792004.4157221,1382,1617792004,415560434,,0.0
267,267,1617792004.435741,1383,1617792004,435551410,,0.0
268,268,1617792004.4557323,1384,1617792004,455550003,,0.0
269,269,1617792004.4757128,1385,1617792004,475528979,,0.0
270,270,1617792004.4957442,1386,1617792004,495548842,,0.0
271,271,1617792004.515754,1387,1617792004,515562097,,0.0
272,272,1617792004.5357366,1388,1617792004,535551319,,0.0
273,273,1617792004.5557106,1389,1617792004,555560416,,0.0
274,274,1617792004.5757391,1390,1617792004,575551111,,0.0
275,275,1617792004.595699,1391,1617792004,595566953,,0.0
276,276,1617792004.615741,1392,1617792004,615583915,,0.0
277,277,1617792004.635736,1393,1617792004,635548355,,0.0
278,278,1617792004.6556995,1394,1617792004,655560071,,0.0
279,279,1617792004.6757214,1395,1617792004,675559644,,0.0
280,280,1617792004.6957273,1396,1617792004,695584739,,0.0
281,281,1617792004.7157214,1397,1617792004,715532518,,0.0
282,282,1617792004.7357402,1398,1617792004,735548710,,0.0
283,283,1617792004.7557065,1399,1617792004,755552127,,0.0
284,284,1617792004.7757356,1400,1617792004,775551393,,0.0
285,285,1617792004.7957168,1401,1617792004,795526872,,0.0
286,286,1617792004.8157098,1402,1617792004,815526501,,0.0
287,287,1617792004.835721,1403,1617792004,835526453,,0.0
288,288,1617792004.8556864,1404,1617792004,855527686,,0.0
289,289,1617792004.875698,1405,1617792004,875528922,,0.0
290,290,1617792004.8957145,1406,1617792004,895526476,,0.0
291,291,1617792004.9156833,1407,1617792004,915526449,,0.0
292,292,1617792004.9357276,1408,1617792004,935526471,,0.0
293,293,1617792004.9557245,1409,1617792004,955526939,,0.0
294,294,1617792004.97572,1410,1617792004,975528934,,0.0
295,295,1617792004.995717,1411,1617792004,995526589,,0.0
296,296,1617792005.0156946,1412,1617792005,15527248,,0.0
297,297,1617792005.035718,1413,1617792005,35526465,,0.0
298,298,1617792005.0557091,1414,1617792005,55525868,,0.0
299,299,1617792005.075712,1415,1617792005,75526608,,0.0
300,300,1617792005.0957167,1416,1617792005,95526267,,0.0
301,301,1617792005.115718,1417,1617792005,115526077,,0.0
302,302,1617792005.135711,1418,1617792005,135526132,,0.0
303,303,1617792005.1557295,1419,1617792005,155526405,,0.0
304,304,1617792005.175731,1420,1617792005,175526680,,0.0
305,305,1617792005.1956904,1421,1617792005,195526107,,0.0
306,306,1617792005.2157116,1422,1617792005,215526503,,0.0
307,307,1617792005.2357185,1423,1617792005,235526167,,0.0
308,308,1617792005.2557125,1424,1617792005,255526656,,0.0
309,309,1617792005.2756946,1425,1617792005,275528924,,0.0
310,310,1617792005.2957358,1426,1617792005,295549129,,0.0
311,311,1617792005.315717,1427,1617792005,315527003,,0.0
312,312,1617792005.3356912,1428,1617792005,335526728,,0.0
313,313,1617792005.3557155,1429,1617792005,355526729,,0.0
314,314,1617792005.3757153,1430,1617792005,375529455,,0.0
315,315,1617792005.3956766,1431,1617792005,395526197,,0.0
316,316,1617792005.4156773,1432,1617792005,415548915,,0.0
317,317,1617792005.4357119,1433,1617792005,435555304,,0.0
318,318,1617792005.4556935,1434,1617792005,455549262,,0.0
319,319,1617792005.4757235,1435,1617792005,475554916,,0.0
320,320,1617792005.4957016,1436,1617792005,495549399,,0.0
321,321,1617792005.5156448,1437,1617792005,515527002,,0.0
322,322,1617792005.5356786,1438,1617792005,535552360,,0.0
323,323,1617792005.5557115,1439,1617792005,555552854,,0.0
324,324,1617792005.575702,1440,1617792005,575550866,,0.0
325,325,1617792005.595703,1441,1617792005,595548898,,0.0
326,326,1617792005.615735,1442,1617792005,615550927,,0.0
327,327,1617792005.6357436,1443,1617792005,635553734,,0.0
328,328,1617792005.655742,1444,1617792005,655552956,,0.0
329,329,1617792005.675704,1445,1617792005,675558774,,0.0
330,330,1617792005.695735,1446,1617792005,695573635,,0.0
331,331,1617792005.7157142,1447,1617792005,715551454,,0.0
332,332,1617792005.7357063,1448,1617792005,735553982,,0.0
333,333,1617792005.7557025,1449,1617792005,755549060,,0.0
334,334,1617792005.7756786,1450,1617792005,775552734,,0.0
335,335,1617792005.7957234,1451,1617792005,795551173,,0.0
336,336,1617792005.8156793,1452,1617792005,815551043,,0.0
337,337,1617792005.8356779,1453,1617792005,835551084,,0.0
338,338,1617792005.8557005,1454,1617792005,855552006,,0.0
339,339,1617792005.8757071,1455,1617792005,875550387,,0.0
340,340,1617792005.8956714,1456,1617792005,895549317,,0.0
341,341,1617792005.9157085,1457,1617792005,915550585,,0.0
342,342,1617792005.935701,1458,1617792005,935548713,,0.0
343,343,1617792005.955673,1459,1617792005,955549994,,0.0
344,344,1617792005.9757113,1460,1617792005,975555573,,0.0
345,345,1617792005.9956725,1461,1617792005,995549381,,0.0
346,346,1617792006.0157082,1462,1617792006,15550798,,0.0
347,347,1617792006.035674,1463,1617792006,35528036,,0.0
348,348,1617792006.0557086,1464,1617792006,55559689,,0.0
349,349,1617792006.075686,1465,1617792006,75528355,,0.0
350,350,1617792006.0957177,1466,1617792006,95561740,,0.0
351,351,1617792006.115716,1467,1617792006,115562657,,0.0
352,352,1617792006.1357045,1468,1617792006,135560104,,0.0
353,353,1617792006.155685,1469,1617792006,155527479,,0.0
354,354,1617792006.175659,1470,1617792006,175527448,,0.0
355,355,1617792006.195659,1471,1617792006,195530185,,0.0
356,356,1617792006.215685,1472,1617792006,215564630,,0.0
357,357,1617792006.2356849,1473,1617792006,235560487,,0.0
358,358,1617792006.2557366,1474,1617792006,255550643,,0.0
359,359,1617792006.2757475,1475,1617792006,275555410,,0.0
360,360,1617792006.2957141,1476,1617792006,295527234,,0.0
361,361,1617792006.3156812,1477,1617792006,315548188,,0.0
362,362,1617792006.3357046,1478,1617792006,335549776,,0.0
363,363,1617792006.3556798,1479,1617792006,355527511,,0.0
364,364,1617792006.3756948,1480,1617792006,375552228,,0.0
365,365,1617792006.3956828,1481,1617792006,395526710,,0.0
366,366,1617792006.4156787,1482,1617792006,415527522,,0.0
367,367,1617792006.4357061,1483,1617792006,435527672,,0.0
368,368,1617792006.455691,1484,1617792006,455527527,,0.0
369,369,1617792006.475691,1485,1617792006,475527706,,0.0
370,370,1617792006.4956787,1486,1617792006,495526525,,0.0
371,371,1617792006.5156865,1487,1617792006,515530447,,0.0
372,372,1617792006.5357099,1488,1617792006,535553253,,0.0
373,373,1617792006.555708,1489,1617792006,555555128,,0.0
374,374,1617792006.5756855,1490,1617792006,575526842,,0.0
375,375,1617792006.5957074,1491,1617792006,595553057,,0.0
376,376,1617792006.6157053,1492,1617792006,615551811,,0.0
377,377,1617792006.6356516,1493,1617792006,635528008,,0.0
378,378,1617792006.655712,1494,1617792006,655557296,,0.0
379,379,1617792006.6756532,1495,1617792006,675530941,,0.0
380,380,1617792006.6957164,1496,1617792006,695528116,,0.0
381,381,1617792006.7157412,1497,1617792006,715550463,,0.0
382,382,1617792006.7357545,1498,1617792006,735551658,,0.0
383,383,1617792006.7557425,1499,1617792006,755558032,,0.0
384,384,1617792006.7757473,1500,1617792006,775566153,,0.0
385,385,1617792006.7957506,1501,1617792006,795553382,,0.0
386,386,1617792006.8157332,1502,1617792006,815551396,,0.0
387,387,1617792006.8357348,1503,1617792006,835549908,,0.0
388,388,1617792006.8557384,1504,1617792006,855551608,,0.0
389,389,1617792006.8757505,1505,1617792006,875564959,,0.0
390,390,1617792006.8957381,1506,1617792006,895550843,,0.0
391,391,1617792006.9157164,1507,1617792006,915527056,,0.0
392,392,1617792006.9357116,1508,1617792006,935554638,,0.0
393,393,1617792006.9557312,1509,1617792006,955549469,,0.0
394,394,1617792006.9757054,1510,1617792006,975527225,,0.0
395,395,1617792006.9957335,1511,1617792006,995528584,,0.0
396,396,1617792007.0157173,1512,1617792007,15562602,,0.0
397,397,1617792007.035744,1513,1617792007,35550974,,0.0
398,398,1617792007.0557446,1514,1617792007,55550852,,0.0
399,399,1617792007.075741,1515,1617792007,75552047,,0.0
400,400,1617792007.0957403,1516,1617792007,95553675,,0.0
401,401,1617792007.1157422,1517,1617792007,115574842,,0.0
402,402,1617792007.1358163,1518,1617792007,135550828,,0.0
403,403,1617792007.1557047,1519,1617792007,155553899,,0.0
404,404,1617792007.1757064,1520,1617792007,175550755,,0.0
405,405,1617792007.1957145,1521,1617792007,195530021,,0.0
406,406,1617792007.2157097,1522,1617792007,215527117,,0.0
407,407,1617792007.2356534,1523,1617792007,235530121,,0.0
408,408,1617792007.2556407,1524,1617792007,255529449,,1.0
409,409,1617792007.2757175,1525,1617792007,275529087,,9.0
410,410,1617792007.2956858,1526,1617792007,295529087,,56.0
411,411,1617792007.3157213,1527,1617792007,315528531,,111.0
412,412,1617792007.3357167,1528,1617792007,335528741,,136.0
413,413,1617792007.3556757,1529,1617792007,355529525,,161.0
414,414,1617792007.3757224,1530,1617792007,375528635,,163.0
415,415,1617792007.3957222,1531,1617792007,395528802,,161.0
416,416,1617792007.415717,1532,1617792007,415553629,,150.0
417,417,1617792007.4357178,1533,1617792007,435529061,,133.0
418,418,1617792007.4557192,1534,1617792007,455528971,,138.0
419,419,1617792007.4757323,1535,1617792007,475529043,,166.0
420,420,1617792007.4957194,1536,1617792007,495528895,,209.0
421,421,1617792007.5156868,1537,1617792007,515528758,,233.0
422,422,1617792007.5357418,1538,1617792007,535548875,,287.0
423,423,1617792007.5557005,1539,1617792007,555551165,,345.0
424,424,1617792007.575659,1540,1617792007,575557303,,373.0
425,425,1617792007.5957215,1541,1617792007,595555802,,427.0
426,426,1617792007.6157372,1542,1617792007,615549311,,481.0
427,427,1617792007.635712,1543,1617792007,635553655,,509.0
428,428,1617792007.6557047,1544,1617792007,655550140,,567.0
429,429,1617792007.675755,1545,1617792007,675566297,,560.0
430,430,1617792007.695718,1546,1617792007,695528194,,532.0
431,431,1617792007.7157145,1547,1617792007,715560617,,456.0
432,432,1617792007.7357512,1548,1617792007,735562196,,381.0
433,433,1617792007.755724,1549,1617792007,755563754,,349.0
434,434,1617792007.7757475,1550,1617792007,775560563,,301.0
435,435,1617792007.7957447,1551,1617792007,795560191,,233.0
436,436,1617792007.815759,1552,1617792007,815560719,,194.0
437,437,1617792007.8357215,1553,1617792007,835558950,,102.0
438,438,1617792007.855739,1554,1617792007,855550688,,27.0
439,439,1617792007.8757088,1555,1617792007,875548769,,-2.0
440,440,1617792007.8956769,1556,1617792007,895550177,,-85.0
441,441,1617792007.91573,1557,1617792007,915552325,,-191.0
442,442,1617792007.9357262,1558,1617792007,935550391,,-242.0
443,443,1617792007.9557204,1559,1617792007,955548495,,-344.0
444,444,1617792007.975702,1560,1617792007,975528391,,-431.0
445,445,1617792007.995713,1561,1617792007,995552045,,-467.0
446,446,1617792008.015701,1562,1617792008,15549988,,-532.0
447,447,1617792008.0356252,1563,1617792008,35527560,,-596.0
448,448,1617792008.0556786,1564,1617792008,55528275,,-632.0
449,449,1617792008.0756814,1565,1617792008,75528410,,-707.0
450,450,1617792008.0956814,1566,1617792008,95526851,,-783.0
451,451,1617792008.1157026,1567,1617792008,115548101,,-818.0
452,452,1617792008.135753,1568,1617792008,135548577,,-885.0
453,453,1617792008.1557178,1569,1617792008,155526429,,-966.0
454,454,1617792008.1757236,1570,1617792008,175526258,,-1008.0
455,455,1617792008.1957352,1571,1617792008,195525916,,-1087.0
456,456,1617792008.2157214,1572,1617792008,215525433,,-1129.0
457,457,1617792008.235717,1573,1617792008,235526371,,-1137.0
458,458,1617792008.2557325,1574,1617792008,255526170,,-1137.0
459,459,1617792008.2757225,1575,1617792008,275549734,,-1095.0
460,460,1617792008.2957113,1576,1617792008,295550536,,-1063.0
461,461,1617792008.3157198,1577,1617792008,315526757,,-1033.0
462,462,1617792008.3357165,1578,1617792008,335526338,,-1016.0
463,463,1617792008.355724,1579,1617792008,355527134,,-998.0
464,464,1617792008.375725,1580,1617792008,375525845,,-960.0
465,465,1617792008.39572,1581,1617792008,395527516,,-915.0
466,466,1617792008.4157245,1582,1617792008,415526638,,-887.0
467,467,1617792008.4357214,1583,1617792008,435527702,,-833.0
468,468,1617792008.4557693,1584,1617792008,455572850,,-781.0
469,469,1617792008.4756994,1585,1617792008,475530365,,-752.0
470,470,1617792008.4957356,1586,1617792008,495531387,,-688.0
471,471,1617792008.515721,1587,1617792008,515526144,,-626.0
472,472,1617792008.535703,1588,1617792008,535526515,,-594.0
473,473,1617792008.5557182,1589,1617792008,555525624,,-534.0
474,474,1617792008.5757225,1590,1617792008,575528470,,-475.0
475,475,1617792008.5957267,1591,1617792008,595528981,,-448.0
476,476,1617792008.6157148,1592,1617792008,615526012,,-395.0
477,477,1617792008.6357214,1593,1617792008,635525997,,-346.0
478,478,1617792008.6557245,1594,1617792008,655525684,,-320.0
479,479,1617792008.6756961,1595,1617792008,675528769,,-268.0
480,480,1617792008.695735,1596,1617792008,695531314,,-213.0
481,481,1617792008.715693,1597,1617792008,715526866,,-186.0
482,482,1617792008.7356887,1598,1617792008,735526981,,-132.0
483,483,1617792008.7557194,1599,1617792008,755525881,,-71.0
484,484,1617792008.775722,1600,1617792008,775525988,,-47.0
485,485,1617792008.7957206,1601,1617792008,795526327,,-17.0
486,486,1617792008.8157349,1602,1617792008,815526014,,-21.0
487,487,1617792008.835724,1603,1617792008,835526194,,-32.0
488,488,1617792008.8557189,1604,1617792008,855525937,,-50.0
489,489,1617792008.8757198,1605,1617792008,875528752,,-61.0
490,490,1617792008.8957286,1606,1617792008,895531369,,-60.0
491,491,1617792008.9157188,1607,1617792008,915525899,,-64.0
492,492,1617792008.9357185,1608,1617792008,935526953,,-58.0
493,493,1617792008.955715,1609,1617792008,955525622,,-57.0
494,494,1617792008.9756901,1610,1617792008,975528307,,-53.0
495,495,1617792008.995725,1611,1617792008,995528982,,-35.0
496,496,1617792009.0157175,1612,1617792009,15525844,,-25.0
497,497,1617792009.035701,1613,1617792009,35526793,,-11.0
498,498,1617792009.055718,1614,1617792009,55525075,,27.0
499,499,1617792009.0757205,1615,1617792009,75526319,,54.0
500,500,1617792009.0956886,1616,1617792009,95526492,,44.0
501,501,1617792009.1157196,1617,1617792009,115526042,,14.0
502,502,1617792009.1357243,1618,1617792009,135525885,,6.0
503,503,1617792009.1557288,1619,1617792009,155525690,,1.0
504,504,1617792009.1757276,1620,1617792009,175526202,,0.0
505,505,1617792009.1957188,1621,1617792009,195525980,,0.0
506,506,1617792009.2157285,1622,1617792009,215525972,,0.0
507,507,1617792009.2357168,1623,1617792009,235548303,,0.0
508,508,1617792009.2557232,1624,1617792009,255526330,,0.0
509,509,1617792009.2757258,1625,1617792009,275529060,,0.0
510,510,1617792009.2957199,1626,1617792009,295526360,,0.0
511,511,1617792009.3156624,1627,1617792009,315525999,,0.0
512,512,1617792009.3357193,1628,1617792009,335525749,,0.0
513,513,1617792009.3556876,1629,1617792009,355525828,,0.0
514,514,1617792009.3757224,1630,1617792009,375529202,,0.0
515,515,1617792009.395719,1631,1617792009,395526367,,0.0
516,516,1617792009.4157212,1632,1617792009,415527979,,0.0
517,517,1617792009.4357154,1633,1617792009,435549878,,0.0
518,518,1617792009.4557474,1634,1617792009,455553545,,0.0
519,519,1617792009.475716,1635,1617792009,475553180,,0.0
520,520,1617792009.4957607,1636,1617792009,495564037,,0.0
521,521,1617792009.5157554,1637,1617792009,515550785,,0.0
522,522,1617792009.535704,1638,1617792009,535560634,,0.0
523,523,1617792009.5557394,1639,1617792009,555548092,,0.0
524,524,1617792009.5757198,1640,1617792009,575549947,,0.0
525,525,1617792009.5956974,1641,1617792009,595529776,,0.0
526,526,1617792009.615748,1642,1617792009,615551600,,0.0
527,527,1617792009.6357536,1643,1617792009,635560031,,0.0
528,528,1617792009.6557148,1644,1617792009,655549569,,0.0
529,529,1617792009.6757462,1645,1617792009,675551820,,0.0
530,530,1617792009.6957624,1646,1617792009,695557739,,0.0
531,531,1617792009.7157204,1647,1617792009,715528369,,0.0
532,532,1617792009.7357185,1648,1617792009,735527763,,-8.0
533,533,1617792009.7557106,1649,1617792009,755548323,,-62.0
534,534,1617792009.775728,1650,1617792009,775530282,,-130.0
535,535,1617792009.7957563,1651,1617792009,795563039,,-170.0
536,536,1617792009.8157434,1652,1617792009,815548662,,-247.0
537,537,1617792009.8357494,1653,1617792009,835549939,,-321.0
538,538,1617792009.855739,1654,1617792009,855551414,,-360.0
539,539,1617792009.875747,1655,1617792009,875552206,,-440.0
540,540,1617792009.8957314,1656,1617792009,895562253,,-523.0
541,541,1617792009.9157178,1657,1617792009,915550149,,-563.0
542,542,1617792009.9357445,1658,1617792009,935551062,,-639.0
543,543,1617792009.955742,1659,1617792009,955548726,,-717.0
544,544,1617792009.9757404,1660,1617792009,975550492,,-761.0
545,545,1617792009.9957108,1661,1617792009,995548197,,-850.0
546,546,1617792010.0157495,1662,1617792010,15552263,,-901.0
547,547,1617792010.035683,1663,1617792010,35551316,,-912.0
548,548,1617792010.0557384,1664,1617792010,55576987,,-917.0
549,549,1617792010.075749,1665,1617792010,75532346,,-886.0
550,550,1617792010.0957453,1666,1617792010,95551248,,-860.0
551,551,1617792010.1157393,1667,1617792010,115548846,,-798.0
552,552,1617792010.135742,1668,1617792010,135550962,,-735.0
553,553,1617792010.1557374,1669,1617792010,155548645,,-705.0
554,554,1617792010.1757462,1670,1617792010,175553428,,-654.0
555,555,1617792010.1957402,1671,1617792010,195527209,,-606.0
556,556,1617792010.2157426,1672,1617792010,215548365,,-583.0
557,557,1617792010.2357366,1673,1617792010,235573055,,-527.0
558,558,1617792010.2557447,1674,1617792010,255550647,,-464.0
559,559,1617792010.2757516,1675,1617792010,275551483,,-431.0
560,560,1617792010.2957394,1676,1617792010,295549235,,-364.0
561,561,1617792010.3157446,1677,1617792010,315548433,,-296.0
562,562,1617792010.3356955,1678,1617792010,335527392,,-267.0
563,563,1617792010.3557394,1679,1617792010,355549820,,-214.0
564,564,1617792010.3757384,1680,1617792010,375550305,,-167.0
565,565,1617792010.3957314,1681,1617792010,395561621,,-136.0
566,566,1617792010.4157267,1682,1617792010,415529695,,-69.0
567,567,1617792010.435756,1683,1617792010,435563044,,-14.0
568,568,1617792010.4557116,1684,1617792010,455549869,,8.0
569,569,1617792010.4757438,1685,1617792010,475550714,,60.0
570,570,1617792010.4957602,1686,1617792010,495562563,,101.0
571,571,1617792010.5157402,1687,1617792010,515561522,,125.0
572,572,1617792010.5357811,1688,1617792010,535563727,,158.0
573,573,1617792010.555743,1689,1617792010,555548703,,188.0
574,574,1617792010.5757275,1690,1617792010,575554906,,203.0
575,575,1617792010.5957456,1691,1617792010,595553183,,227.0
576,576,1617792010.6157188,1692,1617792010,615528154,,239.0
577,577,1617792010.63574,1693,1617792010,635551235,,243.0
578,578,1617792010.6557422,1694,1617792010,655551758,,242.0
579,579,1617792010.675719,1695,1617792010,675527377,,229.0
580,580,1617792010.695761,1696,1617792010,695563654,,215.0
581,581,1617792010.7157516,1697,1617792010,715552012,,175.0
582,582,1617792010.7357564,1698,1617792010,735564369,,119.0
583,583,1617792010.7557375,1699,1617792010,755549975,,44.0
584,584,1617792010.7757525,1700,1617792010,775553833,,-174.0
585,585,1617792010.7957346,1701,1617792010,795550805,,-199.0
586,586,1617792010.8157275,1702,1617792010,815552117,,-160.0
587,587,1617792010.8357387,1703,1617792010,835550746,,-124.0
588,588,1617792010.8557405,1704,1617792010,855549615,,-152.0
589,589,1617792010.8756962,1705,1617792010,875529744,,-178.0
590,590,1617792010.8957574,1706,1617792010,895551658,,-240.0
591,591,1617792010.9156976,1707,1617792010,915528311,,-300.0
592,592,1617792010.935711,1708,1617792010,935549680,,-327.0
593,593,1617792010.9557116,1709,1617792010,955550356,,-379.0
594,594,1617792010.9757226,1710,1617792010,975529766,,-421.0
595,595,1617792010.9957151,1711,1617792010,995550283,,-443.0
596,596,1617792011.015733,1712,1617792011,15552777,,-487.0
597,597,1617792011.0356765,1713,1617792011,35527253,,-542.0
598,598,1617792011.0557153,1714,1617792011,55551128,,-571.0
599,599,1617792011.0756984,1715,1617792011,75529660,,-619.0
600,600,1617792011.095715,1716,1617792011,95549898,,-631.0
601,601,1617792011.1157525,1717,1617792011,115549878,,-636.0
602,602,1617792011.1357353,1718,1617792011,135550544,,-636.0
603,603,1617792011.1557155,1719,1617792011,155553753,,-630.0
604,604,1617792011.1757374,1720,1617792011,175532263,,-628.0
605,605,1617792011.195691,1721,1617792011,195527294,,-627.0
606,606,1617792011.2157533,1722,1617792011,215558781,,-620.0
607,607,1617792011.23572,1723,1617792011,235528542,,-628.0
608,608,1617792011.255758,1724,1617792011,255561991,,-631.0
609,609,1617792011.2757506,1725,1617792011,275560884,,-630.0
610,610,1617792011.2957625,1726,1617792011,295563144,,-629.0
611,611,1617792011.3157206,1727,1617792011,315528090,,-626.0
612,612,1617792011.3357575,1728,1617792011,335560912,,-622.0
613,613,1617792011.3557208,1729,1617792011,355529446,,-619.0
614,614,1617792011.3757591,1730,1617792011,375561269,,-619.0
615,615,1617792011.3957546,1731,1617792011,395552644,,-618.0
616,616,1617792011.4157526,1732,1617792011,415560630,,-624.0
617,617,1617792011.435757,1733,1617792011,435560101,,-628.0
618,618,1617792011.4557624,1734,1617792011,455560460,,-627.0
619,619,1617792011.4758446,1735,1617792011,475564005,,-622.0
620,620,1617792011.495759,1736,1617792011,495560277,,-623.0
621,621,1617792011.5157473,1737,1617792011,515548801,,-625.0
622,622,1617792011.5357425,1738,1617792011,535560916,,-627.0
623,623,1617792011.5557284,1739,1617792011,555562994,,-626.0
624,624,1617792011.575676,1740,1617792011,575551738,,-631.0
625,625,1617792011.595734,1741,1617792011,595548539,,-631.0
626,626,1617792011.6157398,1742,1617792011,615549204,,-630.0
627,627,1617792011.6357582,1743,1617792011,635566745,,-628.0
628,628,1617792011.6557221,1744,1617792011,655527837,,-628.0
629,629,1617792011.6757267,1745,1617792011,675562015,,-630.0
630,630,1617792011.695717,1746,1617792011,695553538,,-633.0
631,631,1617792011.7157564,1747,1617792011,715562552,,-626.0
632,632,1617792011.7357235,1748,1617792011,735562007,,-621.0
633,633,1617792011.7557235,1749,1617792011,755559893,,-622.0
634,634,1617792011.7757466,1750,1617792011,775551336,,-622.0
635,635,1617792011.7957516,1751,1617792011,795551950,,-622.0
636,636,1617792011.8157678,1752,1617792011,815561832,,-625.0
637,637,1617792011.8357062,1753,1617792011,835550083,,-635.0
638,638,1617792011.8557339,1754,1617792011,855549330,,-636.0
639,639,1617792011.8757036,1755,1617792011,875551921,,-630.0
640,640,1617792011.8957098,1756,1617792011,895553450,,-627.0
641,641,1617792011.9156964,1757,1617792011,915530433,,-625.0
642,642,1617792011.9356875,1758,1617792011,935530656,,-627.0
643,643,1617792011.9557133,1759,1617792011,955553118,,-632.0
644,644,1617792011.975718,1760,1617792011,975551590,,-632.0
645,645,1617792011.9957206,1761,1617792011,995553366,,-624.0
646,646,1617792012.0157125,1762,1617792012,15550701,,-619.0
647,647,1617792012.0356936,1763,1617792012,35529041,,-623.0
648,648,1617792012.0557053,1764,1617792012,55527528,,-624.0
649,649,1617792012.0757508,1765,1617792012,75563049,,-619.0
650,650,1617792012.0957253,1766,1617792012,95561626,,-619.0
651,651,1617792012.1156936,1767,1617792012,115527337,,-631.0
652,652,1617792012.135638,1768,1617792012,135528541,,-634.0
653,653,1617792012.155711,1769,1617792012,155549492,,-634.0
654,654,1617792012.175742,1770,1617792012,175550197,,-628.0
655,655,1617792012.195748,1771,1617792012,195554717,,-623.0
656,656,1617792012.2157145,1772,1617792012,215550722,,-623.0
657,657,1617792012.2357273,1773,1617792012,235560536,,-631.0
658,658,1617792012.2557552,1774,1617792012,255562350,,-630.0
659,659,1617792012.275754,1775,1617792012,275556519,,-628.0
660,660,1617792012.2957518,1776,1617792012,295560477,,-622.0
661,661,1617792012.3157554,1777,1617792012,315560407,,-627.0
662,662,1617792012.3357522,1778,1617792012,335549077,,-630.0
663,663,1617792012.3557606,1779,1617792012,355565448,,-625.0
664,664,1617792012.3757231,1780,1617792012,375527445,,-626.0
665,665,1617792012.3957508,1781,1617792012,395560473,,-630.0
666,666,1617792012.415758,1782,1617792012,415562130,,-633.0
667,667,1617792012.4357586,1783,1617792012,435564993,,-632.0
668,668,1617792012.4557636,1784,1617792012,455569253,,-629.0
669,669,1617792012.4757688,1785,1617792012,475563765,,-625.0
670,670,1617792012.4957573,1786,1617792012,495562168,,-625.0
671,671,1617792012.5157318,1787,1617792012,515564226,,-627.0
672,672,1617792012.5357547,1788,1617792012,535564141,,-629.0
673,673,1617792012.5557284,1789,1617792012,555561225,,-618.0
674,674,1617792012.5756984,1790,1617792012,575531641,,-616.0
675,675,1617792012.5957685,1791,1617792012,595564160,,-623.0
676,676,1617792012.6157286,1792,1617792012,615530094,,-627.0
677,677,1617792012.6357305,1793,1617792012,635528050,,-630.0
678,678,1617792012.655724,1794,1617792012,655528064,,-625.0
679,679,1617792012.6757195,1795,1617792012,675526755,,-622.0
680,680,1617792012.6957257,1796,1617792012,695528496,,-627.0
681,681,1617792012.715728,1797,1617792012,715527803,,-635.0
682,682,1617792012.7357204,1798,1617792012,735528291,,-619.0
683,683,1617792012.755727,1799,1617792012,755527734,,-617.0
684,684,1617792012.7757347,1800,1617792012,775528900,,-628.0
685,685,1617792012.7957284,1801,1617792012,795528952,,-632.0
686,686,1617792012.8157275,1802,1617792012,815528115,,-633.0
687,687,1617792012.8357244,1803,1617792012,835527429,,-620.0
688,688,1617792012.8557177,1804,1617792012,855528538,,-612.0
689,689,1617792012.8757098,1805,1617792012,875531649,,-615.0
690,690,1617792012.8957267,1806,1617792012,895526679,,-618.0
691,691,1617792012.9157195,1807,1617792012,915526327,,-627.0
692,692,1617792012.935723,1808,1617792012,935526221,,-626.0
693,693,1617792012.9557354,1809,1617792012,955528428,,-625.0
694,694,1617792012.9756966,1810,1617792012,975526408,,-643.0
695,695,1617792012.995694,1811,1617792012,995526249,,-645.0
696,696,1617792013.0157206,1812,1617792013,15526063,,-625.0
697,697,1617792013.0356913,1813,1617792013,35525854,,-626.0
698,698,1617792013.0557153,1814,1617792013,55525494,,-633.0
699,699,1617792013.0756958,1815,1617792013,75526491,,-634.0
700,700,1617792013.0957243,1816,1617792013,95526304,,-631.0
701,701,1617792013.1157038,1817,1617792013,115525979,,-623.0
702,702,1617792013.1357179,1818,1617792013,135526196,,-621.0
703,703,1617792013.1557293,1819,1617792013,155526137,,-624.0
704,704,1617792013.175711,1820,1617792013,175526519,,-624.0
705,705,1617792013.1957252,1821,1617792013,195526331,,-626.0
706,706,1617792013.2157226,1822,1617792013,215526065,,-631.0
707,707,1617792013.2357163,1823,1617792013,235526205,,-634.0
708,708,1617792013.2557194,1824,1617792013,255525919,,-635.0
709,709,1617792013.2756968,1825,1617792013,275526305,,-626.0
710,710,1617792013.2957249,1826,1617792013,295526275,,-623.0
711,711,1617792013.3156874,1827,1617792013,315525842,,-631.0
712,712,1617792013.3356874,1828,1617792013,335526064,,-633.0
713,713,1617792013.355718,1829,1617792013,355525972,,-629.0
714,714,1617792013.3756964,1830,1617792013,375526329,,-623.0
715,715,1617792013.3957179,1831,1617792013,395525843,,-625.0
716,716,1617792013.4157178,1832,1617792013,415526228,,-625.0
717,717,1617792013.4357202,1833,1617792013,435526118,,-620.0
718,718,1617792013.4557188,1834,1617792013,455525965,,-628.0
719,719,1617792013.4757214,1835,1617792013,475526485,,-634.0
720,720,1617792013.4957087,1836,1617792013,495526366,,-632.0
721,721,1617792013.5157955,1837,1617792013,515525850,,-628.0
722,722,1617792013.5357249,1838,1617792013,535525745,,-625.0
723,723,1617792013.5556893,1839,1617792013,555525911,,-617.0
724,724,1617792013.575691,1840,1617792013,575526383,,-629.0
725,725,1617792013.5957222,1841,1617792013,595526153,,-632.0
726,726,1617792013.6157243,1842,1617792013,615526173,,-633.0
727,727,1617792013.6356866,1843,1617792013,635525989,,-633.0
728,728,1617792013.6557176,1844,1617792013,655526087,,-630.0
729,729,1617792013.6756902,1845,1617792013,675526145,,-632.0
730,730,1617792013.6956801,1846,1617792013,695526530,,-624.0
731,731,1617792013.7157063,1847,1617792013,715551264,,-621.0
732,732,1617792013.7356768,1848,1617792013,735527635,,-624.0
733,733,1617792013.7557034,1849,1617792013,755550163,,-628.0
734,734,1617792013.7757068,1850,1617792013,775549226,,-633.0
735,735,1617792013.7957056,1851,1617792013,795550749,,-633.0
736,736,1617792013.815705,1852,1617792013,815550657,,-621.0
737,737,1617792013.8357098,1853,1617792013,835551456,,-621.0
738,738,1617792013.8557296,1854,1617792013,855548624,,-628.0
739,739,1617792013.8757405,1855,1617792013,875559070,,-631.0
740,740,1617792013.8957105,1856,1617792013,895550185,,-631.0
741,741,1617792013.915713,1857,1617792013,915551574,,-633.0
742,742,1617792013.9357018,1858,1617792013,935549759,,-628.0
743,743,1617792013.955743,1859,1617792013,955551482,,-625.0
744,744,1617792013.9757204,1860,1617792013,975527070,,-624.0
745,745,1617792013.9956634,1861,1617792013,995527434,,-622.0
746,746,1617792014.015767,1862,1617792014,15573350,,-621.0
747,747,1617792014.035718,1863,1617792014,35527165,,-625.0
748,748,1617792014.055741,1864,1617792014,55549408,,-634.0
749,749,1617792014.07574,1865,1617792014,75551144,,-631.0
750,750,1617792014.0957415,1866,1617792014,95549237,,-622.0
751,751,1617792014.1157525,1867,1617792014,115551439,,-626.0
752,752,1617792014.1357453,1868,1617792014,135553468,,-630.0
753,753,1617792014.1557438,1869,1617792014,155550291,,-637.0
754,754,1617792014.1757605,1870,1617792014,175550442,,-634.0
755,755,1617792014.1957102,1871,1617792014,195547589,,-633.0
756,756,1617792014.215741,1872,1617792014,215548545,,-628.0
757,757,1617792014.2357454,1873,1617792014,235558054,,-620.0
758,758,1617792014.2557435,1874,1617792014,255549360,,-621.0
759,759,1617792014.275746,1875,1617792014,275549846,,-620.0
760,760,1617792014.2957466,1876,1617792014,295552844,,-618.0
761,761,1617792014.315747,1877,1617792014,315549190,,-624.0
762,762,1617792014.3357348,1878,1617792014,335527829,,-635.0
763,763,1617792014.3557227,1879,1617792014,355528426,,-632.0
764,764,1617792014.3757346,1880,1617792014,375559418,,-626.0
765,765,1617792014.3957458,1881,1617792014,395549650,,-637.0
766,766,1617792014.4157195,1882,1617792014,415527996,,-677.0
767,767,1617792014.4356859,1883,1617792014,435528336,,-695.0
768,768,1617792014.455745,1884,1617792014,455552289,,-716.0
769,769,1617792014.475743,1885,1617792014,475549130,,-729.0
770,770,1617792014.4957447,1886,1617792014,495551735,,-734.0
771,771,1617792014.515725,1887,1617792014,515549816,,-768.0
772,772,1617792014.5357394,1888,1617792014,535527375,,-800.0
773,773,1617792014.5557432,1889,1617792014,555549514,,-807.0
774,774,1617792014.5757198,1890,1617792014,575549245,,-829.0
775,775,1617792014.5957112,1891,1617792014,595550545,,-855.0
776,776,1617792014.6157427,1892,1617792014,615550801,,-853.0
777,777,1617792014.635749,1893,1617792014,635549694,,-877.0
778,778,1617792014.6557186,1894,1617792014,655528543,,-922.0
779,779,1617792014.67572,1895,1617792014,675528638,,-936.0
780,780,1617792014.695685,1896,1617792014,695526668,,-978.0
781,781,1617792014.7156944,1897,1617792014,715528507,,-1051.0
782,782,1617792014.7357194,1898,1617792014,735528393,,-1092.0
783,783,1617792014.7556856,1899,1617792014,755527674,,-1173.0
784,784,1617792014.7756858,1900,1617792014,775528807,,-1222.0
785,785,1617792014.7957466,1901,1617792014,795549234,,-1227.0
786,786,1617792014.8157105,1902,1617792014,815551043,,-1229.0
787,787,1617792014.8357258,1903,1617792014,835528669,,-1182.0
788,788,1617792014.8556962,1904,1617792014,855528399,,-1154.0
789,789,1617792014.8757572,1905,1617792014,875559879,,-1105.0
790,790,1617792014.895739,1906,1617792014,895550325,,-1057.0
791,791,1617792014.915749,1907,1617792014,915560781,,-1041.0
792,792,1617792014.9357247,1908,1617792014,935561620,,-1010.0
793,793,1617792014.9557405,1909,1617792014,955548969,,-989.0
794,794,1617792014.9757266,1910,1617792014,975530797,,-989.0
795,795,1617792014.9956908,1911,1617792014,995528531,,-982.0
796,796,1617792015.015701,1912,1617792015,15529506,,-957.0
797,797,1617792015.0357587,1913,1617792015,35563182,,-944.0
798,798,1617792015.0557206,1914,1617792015,55526836,,-899.0
799,799,1617792015.0757234,1915,1617792015,75530761,,-831.0
800,800,1617792015.0957205,1916,1617792015,95526505,,-794.0
801,801,1617792015.1157606,1917,1617792015,115562585,,-715.0
802,802,1617792015.1357512,1918,1617792015,135561333,,-644.0
803,803,1617792015.1556866,1919,1617792015,155527032,,-610.0
804,804,1617792015.1756766,1920,1617792015,175530628,,-549.0
805,805,1617792015.195678,1921,1617792015,195526901,,-499.0
806,806,1617792015.215732,1922,1617792015,215560117,,-483.0
807,807,1617792015.2356946,1923,1617792015,235560686,,-459.0
808,808,1617792015.2556891,1924,1617792015,255526649,,-454.0
809,809,1617792015.2757473,1925,1617792015,275554386,,-450.0
810,810,1617792015.295686,1926,1617792015,295551502,,-447.0
811,811,1617792015.315721,1927,1617792015,315551290,,-440.0
812,812,1617792015.3356967,1928,1617792015,335529435,,-432.0
813,813,1617792015.3557305,1929,1617792015,355531161,,-432.0
814,814,1617792015.3757436,1930,1617792015,375528614,,-424.0
815,815,1617792015.3956914,1931,1617792015,395551965,,-435.0
816,816,1617792015.415694,1932,1617792015,415528592,,-447.0
817,817,1617792015.4356878,1933,1617792015,435528458,,-468.0
818,818,1617792015.4557016,1934,1617792015,455527241,,-490.0
819,819,1617792015.4756925,1935,1617792015,475528522,,-506.0
820,820,1617792015.495728,1936,1617792015,495526353,,-540.0
821,821,1617792015.5157995,1937,1617792015,515528551,,-580.0
822,822,1617792015.535731,1938,1617792015,535560434,,-607.0
823,823,1617792015.5557508,1939,1617792015,555560307,,-661.0
824,824,1617792015.5757518,1940,1617792015,575549612,,-719.0
825,825,1617792015.595701,1941,1617792015,595526859,,-752.0
826,826,1617792015.6156962,1942,1617792015,615527940,,-817.0
827,827,1617792015.6357212,1943,1617792015,635527561,,-886.0
828,828,1617792015.655717,1944,1617792015,655527953,,-909.0
829,829,1617792015.6756976,1945,1617792015,675528425,,-926.0
830,830,1617792015.6957214,1946,1617792015,695526282,,-935.0
831,831,1617792015.7157238,1947,1617792015,715527375,,-937.0
832,832,1617792015.7356913,1948,1617792015,735526604,,-927.0
833,833,1617792015.7557244,1949,1617792015,755528801,,-917.0
834,834,1617792015.7757282,1950,1617792015,775529381,,-906.0
835,835,1617792015.795722,1951,1617792015,795526846,,-860.0
836,836,1617792015.8157196,1952,1617792015,815526775,,-789.0
837,837,1617792015.83571,1953,1617792015,835556340,,-761.0
838,838,1617792015.8557134,1954,1617792015,855553851,,-727.0
839,839,1617792015.875749,1955,1617792015,875533499,,-704.0
840,840,1617792015.8957677,1956,1617792015,895564665,,-690.0
841,841,1617792015.9157455,1957,1617792015,915553493,,-667.0
842,842,1617792015.9357517,1958,1617792015,935560452,,-653.0
843,843,1617792015.9557495,1959,1617792015,955559873,,-647.0
844,844,1617792015.9757605,1960,1617792015,975565967,,-626.0
845,845,1617792015.9957526,1961,1617792015,995559739,,-609.0
846,846,1617792016.0157378,1962,1617792016,15548992,,-608.0
847,847,1617792016.035742,1963,1617792016,35550449,,-610.0
848,848,1617792016.055751,1964,1617792016,55560489,,-602.0
849,849,1617792016.0757186,1965,1617792016,75527613,,-593.0
850,850,1617792016.095753,1966,1617792016,95562306,,-582.0
851,851,1617792016.1157365,1967,1617792016,115547891,,-584.0
852,852,1617792016.1357412,1968,1617792016,135549227,,-585.0
853,853,1617792016.1557188,1969,1617792016,155527850,,-582.0
854,854,1617792016.1757407,1970,1617792016,175548287,,-579.0
855,855,1617792016.195749,1971,1617792016,195549633,,-581.0
856,856,1617792016.2157414,1972,1617792016,215549714,,-583.0
857,857,1617792016.2357187,1973,1617792016,235551624,,-573.0
858,858,1617792016.2557414,1974,1617792016,255549177,,-571.0
859,859,1617792016.2757432,1975,1617792016,275553101,,-565.0
860,860,1617792016.2957404,1976,1617792016,295548909,,-565.0
861,861,1617792016.3157418,1977,1617792016,315551055,,-566.0
862,862,1617792016.335705,1978,1617792016,335549107,,-578.0
863,863,1617792016.3557446,1979,1617792016,355555072,,-593.0
864,864,1617792016.3756628,1980,1617792016,375532428,,-599.0
865,865,1617792016.3956974,1981,1617792016,395525904,,-601.0
866,866,1617792016.4157646,1982,1617792016,415569061,,-606.0
867,867,1617792016.4357386,1983,1617792016,435549516,,-611.0
868,868,1617792016.4557474,1984,1617792016,455559958,,-618.0
869,869,1617792016.475741,1985,1617792016,475551863,,-623.0
870,870,1617792016.4957488,1986,1617792016,495560586,,-626.0
871,871,1617792016.515745,1987,1617792016,515561277,,-632.0
872,872,1617792016.5357447,1988,1617792016,535548560,,-637.0
873,873,1617792016.55576,1989,1617792016,555565943,,-639.0
874,874,1617792016.5757165,1990,1617792016,575550266,,-642.0
875,875,1617792016.595752,1991,1617792016,595559804,,-645.0
876,876,1617792016.6157632,1992,1617792016,615560298,,-648.0
877,877,1617792016.6356876,1993,1617792016,635549101,,-661.0
878,878,1617792016.6557505,1994,1617792016,655559836,,-681.0
879,879,1617792016.6757398,1995,1617792016,675550430,,-690.0
880,880,1617792016.6957347,1996,1617792016,695533524,,-702.0
881,881,1617792016.7157695,1997,1617792016,715553334,,-735.0
882,882,1617792016.7357464,1998,1617792016,735549704,,-765.0
883,883,1617792016.75572,1999,1617792016,755526423,,-821.0
884,884,1617792016.7757418,2000,1617792016,775549569,,-852.0
885,885,1617792016.795738,2001,1617792016,795549249,,-865.0
886,886,1617792016.8157413,2002,1617792016,815551293,,-881.0
887,887,1617792016.8357253,2003,1617792016,835527101,,-874.0
888,888,1617792016.8557196,2004,1617792016,855550613,,-870.0
889,889,1617792016.8757277,2005,1617792016,875530424,,-872.0
890,890,1617792016.8957567,2006,1617792016,895562584,,-875.0
891,891,1617792016.9157276,2007,1617792016,915562258,,-879.0
892,892,1617792016.935726,2008,1617792016,935532502,,-888.0
893,893,1617792016.9557507,2009,1617792016,955560138,,-885.0
894,894,1617792016.9757655,2010,1617792016,975562876,,-883.0
895,895,1617792016.9957526,2011,1617792016,995561945,,-888.0
896,896,1617792017.0157402,2012,1617792017,15549405,,-895.0
897,897,1617792017.035715,2013,1617792017,35559830,,-897.0
898,898,1617792017.05574,2014,1617792017,55551352,,-907.0
899,899,1617792017.0757554,2015,1617792017,75561912,,-922.0
900,900,1617792017.0957248,2016,1617792017,95532482,,-925.0
901,901,1617792017.1157446,2017,1617792017,115549690,,-934.0
902,902,1617792017.1357555,2018,1617792017,135563205,,-938.0
903,903,1617792017.15575,2019,1617792017,155561049,,-933.0
904,904,1617792017.1757514,2020,1617792017,175560169,,-923.0
905,905,1617792017.1957426,2021,1617792017,195562336,,-924.0
906,906,1617792017.2156851,2022,1617792017,215551490,,-919.0
907,907,1617792017.2357574,2023,1617792017,235560546,,-893.0
908,908,1617792017.2557182,2024,1617792017,255560288,,-865.0
909,909,1617792017.2757275,2025,1617792017,275560364,,-849.0
910,910,1617792017.295743,2026,1617792017,295550888,,-797.0
911,911,1617792017.315721,2027,1617792017,315555364,,-730.0
912,912,1617792017.3357491,2028,1617792017,335560963,,-695.0
913,913,1617792017.3557422,2029,1617792017,355549604,,-621.0
914,914,1617792017.3757172,2030,1617792017,375528910,,-543.0
915,915,1617792017.395691,2031,1617792017,395528620,,-490.0
916,916,1617792017.4157565,2032,1617792017,415550035,,-380.0
917,917,1617792017.43574,2033,1617792017,435548897,,-310.0
918,918,1617792017.4557376,2034,1617792017,455550143,,-277.0
919,919,1617792017.475767,2035,1617792017,475563241,,-231.0
920,920,1617792017.4957304,2036,1617792017,495551492,,-174.0
921,921,1617792017.515828,2037,1617792017,515549193,,-147.0
922,922,1617792017.5357244,2038,1617792017,535560884,,-109.0
923,923,1617792017.5557244,2039,1617792017,555560362,,-99.0
924,924,1617792017.57577,2040,1617792017,575565276,,-95.0
925,925,1617792017.5956671,2041,1617792017,595529801,,-100.0
926,926,1617792017.6157525,2042,1617792017,615554135,,-99.0
927,927,1617792017.6357114,2043,1617792017,635549851,,-92.0
928,928,1617792017.655712,2044,1617792017,655549405,,-78.0
929,929,1617792017.6757472,2045,1617792017,675551726,,-58.0
930,930,1617792017.6957645,2046,1617792017,695567172,,-43.0
931,931,1617792017.7157464,2047,1617792017,715548503,,-12.0
932,932,1617792017.7357216,2048,1617792017,735528326,,11.0
933,933,1617792017.75575,2049,1617792017,755560303,,25.0
934,934,1617792017.7757454,2050,1617792017,775555005,,45.0
935,935,1617792017.795758,2051,1617792017,795563147,,58.0
936,936,1617792017.8157456,2052,1617792017,815548797,,53.0
937,937,1617792017.8357275,2053,1617792017,835562030,,25.0
938,938,1617792017.855707,2054,1617792017,855552403,,-15.0
939,939,1617792017.8756926,2055,1617792017,875530076,,-44.0
940,940,1617792017.8957524,2056,1617792017,895587108,,-111.0
941,941,1617792017.9157104,2057,1617792017,915548609,,-175.0
942,942,1617792017.9356894,2058,1617792017,935526452,,-205.0
943,943,1617792017.955722,2059,1617792017,955560788,,-265.0
944,944,1617792017.9757235,2060,1617792017,975530587,,-302.0
945,945,1617792017.9957163,2061,1617792017,995549224,,-312.0
946,946,1617792018.0157454,2062,1617792018,15550303,,-316.0
947,947,1617792018.035708,2063,1617792018,35547787,,-311.0
948,948,1617792018.055749,2064,1617792018,55560379,,-305.0
949,949,1617792018.0757186,2065,1617792018,75528433,,-290.0
950,950,1617792018.0957544,2066,1617792018,95564339,,-275.0
951,951,1617792018.115728,2067,1617792018,115526245,,-270.0
952,952,1617792018.1357105,2068,1617792018,135546470,,-263.0
953,953,1617792018.1557155,2069,1617792018,155526908,,-259.0
954,954,1617792018.1757536,2070,1617792018,175549908,,-257.0
955,955,1617792018.1957295,2071,1617792018,195527136,,-273.0
956,956,1617792018.2157812,2072,1617792018,215575327,,-309.0
957,957,1617792018.2357304,2073,1617792018,235560355,,-331.0
958,958,1617792018.2557578,2074,1617792018,255564028,,-377.0
959,959,1617792018.275741,2075,1617792018,275549687,,-412.0
960,960,1617792018.2957144,2076,1617792018,295549223,,-420.0
961,961,1617792018.3156912,2077,1617792018,315527755,,-423.0
962,962,1617792018.3357394,2078,1617792018,335547694,,-419.0
963,963,1617792018.3557422,2079,1617792018,355549548,,-415.0
964,964,1617792018.3757331,2080,1617792018,375527970,,-407.0
965,965,1617792018.3957472,2081,1617792018,395548502,,-404.0
966,966,1617792018.4156888,2082,1617792018,415526993,,-405.0
967,967,1617792018.435742,2083,1617792018,435552222,,-407.0
968,968,1617792018.4557388,2084,1617792018,455551610,,-405.0
969,969,1617792018.4757526,2085,1617792018,475549127,,-404.0
970,970,1617792018.4957445,2086,1617792018,495549431,,-404.0
971,971,1617792018.5157342,2087,1617792018,515527831,,-406.0
972,972,1617792018.5358365,2088,1617792018,535548773,,-407.0
973,973,1617792018.5557375,2089,1617792018,555550817,,-411.0
974,974,1617792018.5757527,2090,1617792018,575550209,,-414.0
975,975,1617792018.5957456,2091,1617792018,595552318,,-417.0
976,976,1617792018.615734,2092,1617792018,615529297,,-420.0
977,977,1617792018.6357462,2093,1617792018,635549496,,-421.0
978,978,1617792018.6556945,2094,1617792018,655527194,,-422.0
979,979,1617792018.6757462,2095,1617792018,675552633,,-425.0
980,980,1617792018.6957448,2096,1617792018,695549902,,-423.0
981,981,1617792018.7157063,2097,1617792018,715540428,,-419.0
982,982,1617792018.7357373,2098,1617792018,735549089,,-406.0
983,983,1617792018.7557144,2099,1617792018,755527405,,-395.0
984,984,1617792018.7757385,2100,1617792018,775548742,,-392.0
985,985,1617792018.7957456,2101,1617792018,795552689,,-392.0
986,986,1617792018.8157506,2102,1617792018,815560065,,-389.0
987,987,1617792018.8357713,2103,1617792018,835568807,,-382.0
988,988,1617792018.8557456,2104,1617792018,855548891,,-354.0
989,989,1617792018.8757062,2105,1617792018,875528961,,-309.0
990,990,1617792018.8957276,2106,1617792018,895548779,,-285.0
991,991,1617792018.9157536,2107,1617792018,915562591,,-232.0
992,992,1617792018.9357498,2108,1617792018,935560209,,-179.0
993,993,1617792018.9557474,2109,1617792018,955560436,,-151.0
994,994,1617792018.9757204,2110,1617792018,975549176,,-106.0
995,995,1617792018.9957476,2111,1617792018,995551278,,-87.0
996,996,1617792019.0157154,2112,1617792019,15549493,,-129.0
997,997,1617792019.0357168,2113,1617792019,35551582,,-174.0
998,998,1617792019.0557652,2114,1617792019,55573207,,-93.0
999,999,1617792019.075746,2115,1617792019,75551159,,-50.0
1000,1000,1617792019.0956836,2116,1617792019,95529031,,-10.0
1001,1001,1617792019.115742,2117,1617792019,115549217,,-1.0
1002,1002,1617792019.1357524,2118,1617792019,135561558,,0.0
1003,1003,1617792019.1557558,2119,1617792019,155561866,,0.0
1004,1004,1617792019.175744,2120,1617792019,175549434,,-19.0
1005,1005,1617792019.1956944,2121,1617792019,195525980,,-35.0
1006,1006,1617792019.2156818,2122,1617792019,215530995,,-44.0
1007,1007,1617792019.2357185,2123,1617792019,235561387,,-58.0
1008,1008,1617792019.2557158,2124,1617792019,255560070,,-62.0
1009,1009,1617792019.2757075,2125,1617792019,275548775,,-74.0
1010,1010,1617792019.2956905,2126,1617792019,295533556,,-74.0
1011,1011,1617792019.3156822,2127,1617792019,315560962,,-75.0
1012,1012,1617792019.335717,2128,1617792019,335560623,,-79.0
1013,1013,1617792019.3557134,2129,1617792019,355549926,,-77.0
